[
  {
    "name": "有间小铺便利店(鼓浪屿内厝澳路店)",
    "type": "购物服务;便民商店/便利店;便民商店/便利店",
    "address": "内厝澳路32号",
    "distance": "152",
    "lat": 24.445738,
    "lng": 118.064694,
    "crs": "GCJ-02",
    "rating": "3.7",
    "recommended_products": [
      "日用百货"
    ]
  },
  {
    "name": "鼓浪屿娜海花园旅馆",
    "type": "住宿服务;宾馆酒店;宾馆酒店|购物服务;购物相关场所;购物相关场所",
    "address": "内厝澳路82号",
    "distance": "152",
    "lat": 24.446614,
    "lng": 118.064659,
    "crs": "GCJ-02",
    "rating": "4.1",
    "recommended_products": [
      "花卉宠物用品"
    ]
  },
  {
    "name": "鼓浪屿海韵花园酒店",
    "type": "住宿服务;旅馆招待所;旅馆招待所|购物服务;购物相关场所;购物相关场所",
    "address": "内厝澳路96号",
    "distance": "157",
    "lat": 24.446712,
    "lng": 118.064643,
    "crs": "GCJ-02",
    "rating": "4.6",
    "recommended_products": [
      "花卉宠物用品"
    ]
  },
  {
    "name": "见福便利店(鼓浪屿风景名胜区店)",
    "type": "购物服务;便民商店/便利店;便民商店/便利店",
    "address": "晃岩路35-6号鼓浪屿风景名胜区",
    "distance": "161",
    "lat": 24.445377,
    "lng": 118.064799,
    "crs": "GCJ-02",
    "rating": "3.9",
    "recommended_products": [
      "日用百货"
    ]
  },
  {
    "name": "夏商生鲜(内厝澳一店)",
    "type": "购物服务;便民商店/便利店;便民商店/便利店",
    "address": "晃岩路35-6号鼓浪屿风景名胜区",
    "distance": "168",
    "lat": 24.445638,
    "lng": 118.064564,
    "crs": "GCJ-02",
    "rating": "3.9",
    "recommended_products": [
      "日用百货"
    ]
  },
  {
    "name": "乐见花田禧饰",
    "type": "购物服务;专卖店;礼品饰品店",
    "address": "晃岩路35-6号鼓浪屿风景名胜区",
    "distance": "176",
    "lat": 24.445489,
    "lng": 118.064555,
    "crs": "GCJ-02",
    "rating": "3.7",
    "recommended_products": [
      "当地特产/纪念品",
      "花卉宠物用品"
    ]
  },
  {
    "name": "桂莲(内厝澳路店)",
    "type": "购物服务;专卖店;专营店",
    "address": "内厝沃321号一楼",
    "distance": "224",
    "lat": 24.445927,
    "lng": 118.063907,
    "crs": "GCJ-02",
    "rating": "3.5",
    "recommended_products": [
      "日用百货"
    ]
  },
  {
    "name": "苏小曼(鼓浪屿店)",
    "type": "购物服务;专卖店;礼品饰品店|购物服务;服装鞋帽皮具店;服装鞋帽皮具店",
    "address": "鼓浪屿内厝澳路343-1号",
    "distance": "271",
    "lat": 24.446489,
    "lng": 118.063441,
    "crs": "GCJ-02",
    "rating": "3.3",
    "recommended_products": [
      "当地特产/纪念品",
      "服装鞋帽"
    ]
  },
  {
    "name": "本地人便利店",
    "type": "购物服务;购物相关场所;购物相关场所",
    "address": "鼓新路26-1号",
    "distance": "279",
    "lat": 24.446354,
    "lng": 118.068859,
    "crs": "GCJ-02",
    "rating": "3.8",
    "recommended_products": [
      "日用百货"
    ]
  },
  {
    "name": "LAWSON罗森(鼓浪屿龙山洞店)",
    "type": "购物服务;便民商店/便利店;便民商店/便利店",
    "address": "晃岩路35-6号鼓浪屿风景名胜区内(北侧)",
    "distance": "283",
    "lat": 24.448725,
    "lng": 118.065625,
    "crs": "GCJ-02",
    "rating": "2.0",
    "recommended_products": [
      "日用百货"
    ]
  },
  {
    "name": "西界禅艺",
    "type": "购物服务;购物相关场所;购物相关场所",
    "address": "鼓浪屿泉州路66-2号",
    "distance": "284",
    "lat": 24.444559,
    "lng": 118.068239,
    "crs": "GCJ-02",
    "rating": "4.1",
    "recommended_products": [
      "日用百货"
    ]
  },
  {
    "name": "庄雪丽食品店",
    "type": "购物服务;便民商店/便利店;便民商店/便利店",
    "address": "鼓新路30号",
    "distance": "287",
    "lat": 24.446892,
    "lng": 118.068839,
    "crs": "GCJ-02",
    "rating": "3.5",
    "recommended_products": [
      "食品/零食"
    ]
  },
  {
    "name": "原巷口鱼丸铺(鼓浪屿店)",
    "type": "购物服务;综合市场;农副产品市场",
    "address": [],
    "distance": "291",
    "lat": 24.448395,
    "lng": 118.067702,
    "crs": "GCJ-02",
    "rating": "4.0",
    "recommended_products": [
      "日用百货"
    ]
  },
  {
    "name": "厦门茶上烟雨",
    "type": "购物服务;专卖店;专营店",
    "address": "内厝社区居民委员会东北侧80米",
    "distance": "317",
    "lat": 24.448063,
    "lng": 118.063714,
    "crs": "GCJ-02",
    "rating": "3.8",
    "recommended_products": [
      "饮品/茶叶"
    ]
  },
  {
    "name": "有间小铺(内厝澳路)",
    "type": "购物服务;便民商店/便利店;便民商店/便利店",
    "address": "晃岩路35-6号鼓浪屿风景名胜区(西北角)",
    "distance": "318",
    "lat": 24.448161,
    "lng": 118.063793,
    "crs": "GCJ-02",
    "rating": "3.8",
    "recommended_products": [
      "日用百货"
    ]
  }
]